[
  {
    "order": 1,
    "place_raw": "达瓦扎燃烧坑",
    "place_modern": "土库曼斯坦卡拉库姆沙漠达瓦扎",
    "layer": "major",
    "confidence": "confirmed",
    "country": "土库曼斯坦",
    "chapter_title": "地狱之门",
    "event": "夜访达瓦扎天然气燃烧坑（地狱之门），在火坑边缘独自迷路",
    "source_sentence": "我迷路了。地坑中的火焰磨灭了星光，让所有光线的阴影也消散无踪。",
    "route_to_next": "solid",
    "lat": 40.2526,
    "lon": 58.4396,
    "geo_source": "nominatim_en",
    "coord_note": "",
    "resolved": true
  },
  {
    "order": 2,
    "place_raw": "阿什哈巴德",
    "place_modern": "土库曼斯坦首都阿什哈巴德",
    "layer": "major",
    "confidence": "confirmed",
    "country": "土库曼斯坦",
    "chapter_title": "大理石之城 / 灵魂之书 / 骏马大会",
    "event": "深度游历土库曼斯坦首都，参观总统宫殿、骏马大赛、大理石覆盖的城市建筑",
    "source_sentence": "阿什哈巴德的大屏幕日常会播放截取自总统工作日的视频片段",
    "route_to_next": "solid",
    "lat": 37.9378,
    "lon": 58.2359,
    "geo_source": "nominatim_en",
    "coord_note": "",
    "resolved": true
  },
  {
    "order": 3,
    "place_raw": "卡拉库姆沙漠",
    "place_modern": "土库曼斯坦卡拉库姆沙漠",
    "layer": "transit",
    "confidence": "confirmed",
    "country": "土库曼斯坦",
    "chapter_title": "沙漠之花",
    "event": "穿越卡拉库姆沙漠，在沙漠中骑马",
    "source_sentence": "我在沙漠中骑在一匹马的马背上",
    "route_to_next": "solid",
    "lat": 40.1152,
    "lon": 59.8616,
    "geo_source": "nominatim_en",
    "coord_note": "",
    "resolved": true
  },
  {
    "order": 4,
    "place_raw": "马雷",
    "place_modern": "土库曼斯坦马雷州马雷市",
    "layer": "major",
    "confidence": "confirmed",
    "country": "土库曼斯坦",
    "chapter_title": "最后的勘探",
    "event": "探访古代马雷（木鹿），参观古丝绸之路遗址",
    "source_sentence": "我们能够成功揭开多少层？我们得回到土库曼巴希和他的金色塑像之前",
    "route_to_next": "solid",
    "lat": 37.594,
    "lon": 61.8398,
    "geo_source": "nominatim_en",
    "coord_note": "",
    "resolved": true
  },
  {
    "order": 5,
    "place_raw": "土库曼巴希",
    "place_modern": "土库曼斯坦土库曼巴希市（原克拉斯诺沃茨克）",
    "layer": "major",
    "confidence": "confirmed",
    "country": "土库曼斯坦",
    "chapter_title": "至高幸福时代",
    "event": "抵达里海边的土库曼巴希港口城市，准备过境哈萨克斯坦",
    "source_sentence": "当土库曼斯坦航空的飞机机轮触地时，里海沐浴在一片橘黄色光线下。",
    "route_to_next": "solid",
    "lat": 40.0055,
    "lon": 52.9933,
    "geo_source": "nominatim_en",
    "coord_note": "",
    "resolved": true
  },
  {
    "order": 6,
    "place_raw": "土哈边境",
    "place_modern": "土库曼斯坦-哈萨克斯坦边境口岸",
    "layer": "transit",
    "confidence": "confirmed",
    "country": "土库曼斯坦/哈萨克斯坦",
    "chapter_title": "边境",
    "event": "穿越土哈沙漠边境，司机抱怨苏联解体后繁琐的过境手续",
    "source_sentence": "载我从土库曼巴希去哈萨克斯坦边境冷清的小检查站的司机向我透露，他打算移民。",
    "route_to_next": "solid",
    "lat": 41.5387,
    "lon": 52.5722,
    "geo_source": "nominatim_en",
    "coord_note": "",
    "resolved": true
  },
  {
    "order": 7,
    "place_raw": "阿克套",
    "place_modern": "哈萨克斯坦曼吉斯套州阿克套市",
    "layer": "major",
    "confidence": "confirmed",
    "country": "哈萨克斯坦",
    "chapter_title": "寿司与自动取款机的绿洲",
    "event": "里海东岸石油城阿克套，在酒店休息数日",
    "source_sentence": "在阿克套的几天，我几乎都是独处，多数时间都在酒店房间里懒洋洋躺着",
    "route_to_next": "solid",
    "lat": 43.6353,
    "lon": 51.1682,
    "geo_source": "nominatim_en",
    "coord_note": "",
    "resolved": true
  },
  {
    "order": 8,
    "place_raw": "阿拉尔",
    "place_modern": "哈萨克斯坦克孜勒奥尔达州阿拉尔市",
    "layer": "major",
    "confidence": "confirmed",
    "country": "哈萨克斯坦",
    "chapter_title": "消失的海",
    "event": "夜抵阿拉尔火车站，翌日探访干涸的咸海遗迹",
    "source_sentence": "列车员是对的，我不可能整夜站在站台上。我晃到车站大楼……离三点还差一刻。",
    "route_to_next": "solid",
    "lat": 46.798,
    "lon": 61.6612,
    "geo_source": "nominatim_en",
    "coord_note": "",
    "resolved": true
  },
  {
    "order": 9,
    "place_raw": "咸海",
    "place_modern": "哈萨克斯坦/乌兹别克斯坦咸海（现大幅干涸）",
    "layer": "major",
    "confidence": "confirmed",
    "country": "哈萨克斯坦",
    "chapter_title": "消失的海",
    "event": "目睹咸海干涸现场，采访环境组织代表",
    "source_sentence": "以及我打算明天去看咸海",
    "route_to_next": "solid",
    "lat": 45.0814,
    "lon": 60.2204,
    "geo_source": "nominatim_en",
    "coord_note": "",
    "resolved": true
  },
  {
    "order": 10,
    "place_raw": "阿克苏-热巴格雷国家公园",
    "place_modern": "哈萨克斯坦阿拉木图州阿克苏-热巴格雷国家公园",
    "layer": "major",
    "confidence": "confirmed",
    "country": "哈萨克斯坦",
    "chapter_title": "帝国",
    "event": "拜访国家公园退休鸟类学家，讨论苏联解体与中亚生态",
    "source_sentence": "从办公室窗户往外看，可以看到阿克苏-热巴格雷自然保护区里白雪覆盖的群山",
    "route_to_next": "solid",
    "lat": 42.3075,
    "lon": 70.6346,
    "geo_source": "nominatim_en",
    "coord_note": "",
    "resolved": true
  },
  {
    "order": 11,
    "place_raw": "图尔科巴斯",
    "place_modern": "哈萨克斯坦南哈萨克斯坦州图尔科巴斯",
    "layer": "transit",
    "confidence": "confirmed",
    "country": "哈萨克斯坦",
    "chapter_title": "哈萨克马球",
    "event": "观看胜利日传统哈萨克马球比赛",
    "source_sentence": "哈萨克斯坦南方的图尔科巴斯离阿克苏-热巴格雷国家公园只有几公里",
    "route_to_next": "solid",
    "lat": 43.3019,
    "lon": 68.2704,
    "geo_source": "nominatim_en",
    "coord_note": "",
    "resolved": true
  },
  {
    "order": 12,
    "place_raw": "卡拉干达",
    "place_modern": "哈萨克斯坦卡拉干达州卡拉干达市",
    "layer": "major",
    "confidence": "confirmed",
    "country": "哈萨克斯坦",
    "chapter_title": "斯大林的棋子",
    "event": "参加法蒂玛圣母大教堂开幕式，了解斯大林时期流放者历史",
    "source_sentence": "这个中亚最大的教堂几乎挤满了人。七十年来，良善的基督徒被否定了从事信仰的权利",
    "route_to_next": "solid",
    "lat": 49.1767,
    "lon": 74.1811,
    "geo_source": "nominatim_en",
    "coord_note": "",
    "resolved": true
  },
  {
    "order": 13,
    "place_raw": "阿斯塔纳",
    "place_modern": "哈萨克斯坦首都阿斯塔纳（现努尔苏丹）",
    "layer": "major",
    "confidence": "confirmed",
    "country": "哈萨克斯坦",
    "chapter_title": "首都",
    "event": "游览哈萨克斯坦新首都阿斯塔纳，感受其浮夸的未来主义建筑",
    "source_sentence": "几小时后，我们看到了远处一片模糊的光亮。阿斯塔纳。首都。",
    "route_to_next": "solid",
    "lat": 51.1282,
    "lon": 71.4307,
    "geo_source": "nominatim_en",
    "coord_note": "",
    "resolved": true
  },
  {
    "order": 14,
    "place_raw": "塞米巴拉金斯克",
    "place_modern": "哈萨克斯坦东哈萨克斯坦州塞米伊市",
    "layer": "major",
    "confidence": "confirmed",
    "country": "哈萨克斯坦",
    "chapter_title": "伟大试验",
    "event": "探访前苏联核试验场周边地区，采访辐射受害者",
    "source_sentence": "我乘坐的这架小飞机正缓缓爬上云端，即将载着我往东南方飞，去往塞米巴拉金斯克。",
    "route_to_next": "solid",
    "lat": 50.4067,
    "lon": 80.2503,
    "geo_source": "nominatim_en",
    "coord_note": "",
    "resolved": true
  },
  {
    "order": 15,
    "place_raw": "阿拉木图",
    "place_modern": "哈萨克斯坦前首都阿拉木图市",
    "layer": "major",
    "confidence": "confirmed",
    "country": "哈萨克斯坦",
    "chapter_title": "脆弱的心 / 疲惫的活动家 / 一记重击",
    "event": "哈萨克斯坦金融中心，拜访人权活动家，探访郊外萨满比法蒂玛",
    "source_sentence": "一架旧螺旋桨飞机……载着我从塞米巴拉金斯克前往我此行的最后一站，阿拉木图。",
    "route_to_next": "solid",
    "lat": 43.2364,
    "lon": 76.9457,
    "geo_source": "nominatim_en",
    "coord_note": "",
    "resolved": true
  },
  {
    "order": 16,
    "place_raw": "杜尚别",
    "place_modern": "塔吉克斯坦首都杜尚别",
    "layer": "major",
    "confidence": "confirmed",
    "country": "塔吉克斯坦",
    "chapter_title": "一记重击 / 与时代脱节",
    "event": "抵达塔吉克斯坦首都，165米世界最高旗杆震撼出场",
    "source_sentence": "红白绿三色的塔吉克斯坦国旗在清晨的微风中懒洋洋地飘动。那国旗重三百多公斤，长60米，宽30米",
    "route_to_next": "solid",
    "lat": 38.5767,
    "lon": 68.7854,
    "geo_source": "nominatim_en",
    "coord_note": "",
    "resolved": true
  },
  {
    "order": 17,
    "place_raw": "安索布隧道",
    "place_modern": "塔吉克斯坦安索布隧道（杜尚别至苦盏）",
    "layer": "transit",
    "confidence": "confirmed",
    "country": "塔吉克斯坦",
    "chapter_title": "与时代脱节",
    "event": "穿越恐怖的安索布隧道（末日隧道），漆黑无灯、废气弥漫",
    "source_sentence": "以「末日隧道」或「死亡隧道」之名广为人知的安索布隧道是一场灾难。",
    "route_to_next": "solid",
    "lat": 39.085,
    "lon": 68.6936,
    "geo_source": "nominatim_en",
    "coord_note": "",
    "resolved": true
  },
  {
    "order": 18,
    "place_raw": "苦盏",
    "place_modern": "塔吉克斯坦苦盏州苦盏市",
    "layer": "major",
    "confidence": "confirmed",
    "country": "塔吉克斯坦",
    "chapter_title": "与时代脱节",
    "event": "塔吉克斯坦第二大城市苦盏，探访当地生活",
    "source_sentence": "苦盏是塔吉克斯坦的第二大城市。隧道建成之前，去苦盏的路须经过乌兹别克斯坦",
    "route_to_next": "solid",
    "lat": 40.2842,
    "lon": 69.6191,
    "geo_source": "nominatim_en",
    "coord_note": "",
    "resolved": true
  },
  {
    "order": 19,
    "place_raw": "库尔干秋别",
    "place_modern": "塔吉克斯坦哈特隆州库尔干秋别市",
    "layer": "major",
    "confidence": "confirmed",
    "country": "塔吉克斯坦",
    "chapter_title": "伤心的服务小姐",
    "event": "塔吉克斯坦第四大城市，采访悲伤的女服务员",
    "source_sentence": "尽管库尔干秋别是塔吉克斯坦第四大城市，但导游手册里连提都没提它。",
    "route_to_next": "solid",
    "lat": 37.9081,
    "lon": 69.7739,
    "geo_source": "nominatim_en",
    "coord_note": "",
    "resolved": true
  },
  {
    "order": 20,
    "place_raw": "雅格诺布山谷",
    "place_modern": "塔吉克斯坦索格德州雅格诺布山谷",
    "layer": "major",
    "confidence": "confirmed",
    "country": "塔吉克斯坦",
    "chapter_title": "战争的面目",
    "event": "探访雅格诺布山谷，采访内战幸存老妇，了解塔吉克内战历史",
    "source_sentence": "苏拉娅是我在雅格诺布山谷一间简朴小木屋里见到的一个老妇人",
    "route_to_next": "solid",
    "lat": 39.15,
    "lon": 68.95,
    "geo_source": "manual",
    "coord_note": "推测坐标，请核实",
    "resolved": true
  },
  {
    "order": 21,
    "place_raw": "霍罗格",
    "place_modern": "塔吉克斯坦戈尔诺-巴达赫尚州霍罗格市",
    "layer": "major",
    "confidence": "confirmed",
    "country": "塔吉克斯坦",
    "chapter_title": "大博弈",
    "event": "乘直升机穿越帕米尔山脉抵达霍罗格，帕米尔高原首府",
    "source_sentence": "旋翼带着我们从地面升起时，直升机的机身轻轻颤动……这是一个美好的早晨……要从杜尚别飞往霍罗格",
    "route_to_next": "solid",
    "lat": 37.4909,
    "lon": 71.5489,
    "geo_source": "nominatim_en",
    "coord_note": "",
    "resolved": true
  },
  {
    "order": 22,
    "place_raw": "布伦库尔村",
    "place_modern": "塔吉克斯坦戈尔诺-巴达赫尚州帕米尔高原布伦库尔村",
    "layer": "major",
    "confidence": "confirmed",
    "country": "塔吉克斯坦",
    "chapter_title": "太阳脚下的土地",
    "event": "帕米尔高原极偏远村落，46户人家，道路尽头，最低温零下53℃",
    "source_sentence": "在高高的帕米尔高原上……坐落着布伦库尔村。四十六户人家，四百零七口人",
    "route_to_next": "solid",
    "lat": 37.7217,
    "lon": 72.9614,
    "geo_source": "nominatim_en",
    "coord_note": "",
    "resolved": true
  },
  {
    "order": 23,
    "place_raw": "中塔边境（帕米尔）",
    "place_modern": "塔吉克斯坦-中国边境，瓦罕走廊帕米尔段",
    "layer": "transit",
    "confidence": "confirmed",
    "country": "塔吉克斯坦",
    "chapter_title": "让我们一起打击腐败！",
    "event": "观察帕米尔高原中塔苏联时代铁丝网边境，海拔4000米",
    "source_sentence": "一道围栏从一整片平坦、尘土飞扬的景象中横穿过去……在海拔四千米的高度，背后吹来帕米尔高原刺骨的寒风",
    "route_to_next": "solid",
    "lat": 37.5,
    "lon": 74.5,
    "geo_source": "manual",
    "coord_note": "推测坐标，请核实",
    "resolved": true
  },
  {
    "order": 24,
    "place_raw": "比什凯克",
    "place_modern": "吉尔吉斯斯坦首都比什凯克",
    "layer": "major",
    "confidence": "confirmed",
    "country": "吉尔吉斯斯坦",
    "chapter_title": "自由的时刻 / 别哭，你现在是我的妻子了",
    "event": "吉尔吉斯斯坦首都，采访关于新娘绑架习俗的受害者玛丽亚姆",
    "source_sentence": "此时距离玛丽亚姆离开她的小村庄来到比什凯克学习德语正好一年时间",
    "route_to_next": "solid",
    "lat": 42.8761,
    "lon": 74.6037,
    "geo_source": "nominatim_en",
    "coord_note": "",
    "resolved": true
  },
  {
    "order": 25,
    "place_raw": "波孔巴耶沃",
    "place_modern": "吉尔吉斯斯坦伊塞克湖州波孔巴耶沃镇",
    "layer": "major",
    "confidence": "confirmed",
    "country": "吉尔吉斯斯坦",
    "chapter_title": "养鹰人",
    "event": "与传统养鹰人同行，观看猎鹰捕兔表演",
    "source_sentence": "我们开车穿过波孔巴耶沃满是尘土的乡村街道",
    "route_to_next": "solid",
    "lat": 42.1138,
    "lon": 76.9979,
    "geo_source": "nominatim_en",
    "coord_note": "",
    "resolved": true
  },
  {
    "order": 26,
    "place_raw": "红色阵线村",
    "place_modern": "吉尔吉斯斯坦奥什州红色阵线德意志人村落",
    "layer": "major",
    "confidence": "confirmed",
    "country": "吉尔吉斯斯坦",
    "chapter_title": "红色阵线最后的德意志人",
    "event": "探访苏联时代流放至此的德意志人社区，克服重重阻拦完成采访",
    "source_sentence": "威廉先生的警告让我大吃一惊……我强烈建议您不要去红色阵线",
    "route_to_next": "solid",
    "lat": 41.0,
    "lon": 74.0,
    "geo_source": "manual",
    "coord_note": "推测坐标，请核实",
    "resolved": true
  },
  {
    "order": 27,
    "place_raw": "阿尔斯兰博布",
    "place_modern": "吉尔吉斯斯坦贾拉拉巴德州阿尔斯兰博布村",
    "layer": "major",
    "confidence": "confirmed",
    "country": "吉尔吉斯斯坦",
    "chapter_title": "希腊坚果",
    "event": "探访世界最大野生胡桃林，聆听阿尔斯兰博布传说",
    "source_sentence": "阿尔斯兰博布既是村庄大恩人的名字，也是那个村庄的名字",
    "route_to_next": "solid",
    "lat": 41.3372,
    "lon": 72.9287,
    "geo_source": "nominatim_en",
    "coord_note": "",
    "resolved": true
  },
  {
    "order": 28,
    "place_raw": "奥什",
    "place_modern": "吉尔吉斯斯坦奥什市",
    "layer": "major",
    "confidence": "confirmed",
    "country": "吉尔吉斯斯坦",
    "chapter_title": "6月的五天",
    "event": "探访2010年吉乌族群冲突现场，采访暴力事件幸存者",
    "source_sentence": "2010年6月12日，奥什吉尔吉斯人与乌兹别克人之间的暴力冲突爆发",
    "route_to_next": "solid",
    "lat": 40.1083,
    "lon": 73.1931,
    "geo_source": "nominatim_en",
    "coord_note": "",
    "resolved": true
  },
  {
    "order": 29,
    "place_raw": "贾拉拉巴德",
    "place_modern": "吉尔吉斯斯坦贾拉拉巴德州贾拉拉巴德市",
    "layer": "major",
    "confidence": "confirmed",
    "country": "吉尔吉斯斯坦",
    "chapter_title": "等候室里的沉默",
    "event": "参观贾拉拉巴德结核病诊所，了解后苏联时代医疗危机",
    "source_sentence": "连小小的贾拉拉巴德都有自己的结核病诊所，我对此表示惊讶。",
    "route_to_next": "solid",
    "lat": 41.4804,
    "lon": 72.465,
    "geo_source": "nominatim_en",
    "coord_note": "",
    "resolved": true
  },
  {
    "order": 30,
    "place_raw": "吉乌边境",
    "place_modern": "吉尔吉斯斯坦-乌兹别克斯坦边境口岸",
    "layer": "transit",
    "confidence": "confirmed",
    "country": "吉尔吉斯斯坦/乌兹别克斯坦",
    "chapter_title": "您是否携带了色情物品，小姐？",
    "event": "棉花收获季过境，边境几乎无人，被海关询问是否携带色情物品",
    "source_sentence": "如果你要从吉尔吉斯斯坦去乌兹别克斯坦，推荐在棉花收获时节穿过边境。",
    "route_to_next": "solid",
    "lat": 40.5,
    "lon": 71.0,
    "geo_source": "manual",
    "coord_note": "推测坐标，请核实",
    "resolved": true
  },
  {
    "order": 31,
    "place_raw": "塔什干",
    "place_modern": "乌兹别克斯坦首都塔什干",
    "layer": "major",
    "confidence": "confirmed",
    "country": "乌兹别克斯坦",
    "chapter_title": "装门面的艺术 / 终点站",
    "event": "乌兹别克斯坦首都，秘密采访，乘高铁抵达，中亚铁路终点站",
    "source_sentence": "塔什干是中亚铁路的终点站。这条铁路长1864公里，从土库曼巴希出发",
    "route_to_next": "solid",
    "lat": 41.3123,
    "lon": 69.2787,
    "geo_source": "nominatim_en",
    "coord_note": "",
    "resolved": true
  },
  {
    "order": 32,
    "place_raw": "努库斯",
    "place_modern": "乌兹别克斯坦卡拉卡尔帕克斯坦共和国努库斯市",
    "layer": "major",
    "confidence": "confirmed",
    "country": "乌兹别克斯坦",
    "chapter_title": "沙漠中的博物馆",
    "event": "参观萨维茨基美术馆，中亚最重要的前卫艺术收藏",
    "source_sentence": "从踏进来的一瞬间起，各种色彩与印象便向我袭来，令我不知所措。",
    "route_to_next": "solid",
    "lat": 42.46,
    "lon": 59.6177,
    "geo_source": "nominatim_en",
    "coord_note": "",
    "resolved": true
  },
  {
    "order": 33,
    "place_raw": "阿姆河流域",
    "place_modern": "乌兹别克斯坦卡拉卡尔帕克斯坦阿姆河下游",
    "layer": "transit",
    "confidence": "confirmed",
    "country": "乌兹别克斯坦",
    "chapter_title": "棉花之神",
    "event": "跨越阿姆河大桥，目睹这条中亚最重要河流的衰竭",
    "source_sentence": "开车驶出努库斯后不久，我们来到一座大桥前……这是阿姆河仅存的部分",
    "route_to_next": "solid",
    "lat": 37.2057,
    "lon": 67.3207,
    "geo_source": "nominatim_en",
    "coord_note": "",
    "resolved": true
  },
  {
    "order": 34,
    "place_raw": "希瓦",
    "place_modern": "乌兹别克斯坦花拉子模州希瓦古城",
    "layer": "major",
    "confidence": "confirmed",
    "country": "乌兹别克斯坦",
    "chapter_title": "追寻逝去的时间",
    "event": "游览希瓦古城伊钦卡拉，保存完好的丝路古城，穿越时光之感",
    "source_sentence": "穿过位于希瓦之内的老城伊钦卡拉的城门，就像踏进了几百年前。",
    "route_to_next": "solid",
    "lat": 41.3775,
    "lon": 60.3635,
    "geo_source": "nominatim_en",
    "coord_note": "",
    "resolved": true
  },
  {
    "order": 35,
    "place_raw": "撒马尔罕",
    "place_modern": "乌兹别克斯坦撒马尔罕州撒马尔罕市",
    "layer": "major",
    "confidence": "confirmed",
    "country": "乌兹别克斯坦",
    "chapter_title": "丝路上的珍珠",
    "event": "探访丝绸之路重镇，参观帖木儿帝国遗迹",
    "source_sentence": "我在那迷宫似的后巷和宽敞开阔的广场徘徊游逛",
    "route_to_next": "solid",
    "lat": 39.6542,
    "lon": 66.9597,
    "geo_source": "ancient",
    "coord_note": "丝路重镇",
    "resolved": true
  },
  {
    "order": 36,
    "place_raw": "布哈拉",
    "place_modern": "乌兹别克斯坦布哈拉州布哈拉市",
    "layer": "major",
    "confidence": "confirmed",
    "country": "乌兹别克斯坦",
    "chapter_title": "丝路上的珍珠",
    "event": "独游布哈拉老城三日，蓝色穹顶与古老巴扎",
    "source_sentence": "11月，布哈拉的街道上几乎没有游客。一连三天，我在那迷宫似的后巷和宽敞开阔的广场徘徊游逛",
    "route_to_next": "solid",
    "lat": 39.776,
    "lon": 64.4152,
    "geo_source": "nominatim_en",
    "coord_note": "",
    "resolved": true
  },
  {
    "order": 37,
    "place_raw": "马尔吉兰",
    "place_modern": "乌兹别克斯坦费尔干纳州马尔吉兰市",
    "layer": "major",
    "confidence": "confirmed",
    "country": "乌兹别克斯坦",
    "chapter_title": "不过都是造梦的材料",
    "event": "参观传统丝绸作坊，观看手工缫丝全过程",
    "source_sentence": "一个老妇人坐在光线昏暗的屋子中央，在一个锌盆里搅动，里面盛满沸腾的水。几千个茧子密密麻麻地漂浮在水面上。",
    "route_to_next": "solid",
    "lat": 40.4695,
    "lon": 71.7195,
    "geo_source": "nominatim_en",
    "coord_note": "",
    "resolved": true
  }
]